{
"type": "FeatureCollection",
"name": "Baltimore_City_Schools",
"crs": { "type": "name", "properties": { "name": "urn:ogc:def:crs:OGC:1.3:CRS84" } },
"features": [
{ "type": "Feature", "properties": { "OBJECTID": 1, "BLDG_NUM": 7, "PRG_NUM": 7, "NAME": "Cecil Elementary", "ADDRESS": "2000 Cecil Ave, Baltimore, MD 21218", "CLASS": "PK-5", "CATEGORY": "E", "x": -76.60547808, "y": 39.31320382, "GRADES": "PK-5", "ZIPCODE": "21218", "TYPE": "Traditional", "GlobalID": "1ca9af25-f447-4c6c-a1d8-a46f530dde31" }, "geometry": { "type": "Point", "coordinates": [ -76.605478080917194, 39.313203821880002 ] } },
{ "type": "Feature", "properties": { "OBJECTID": 2, "BLDG_NUM": 8, "PRG_NUM": 8, "NAME": "City Springs Elementary/Middle", "ADDRESS": "100 S Caroline St, Baltimore, MD 21231", "CLASS": "PK-8", "CATEGORY": "EM", "x": -76.59723816, "y": 39.28987477, "GRADES": "PK-8", "ZIPCODE": "21231", "TYPE": "Charter-Conversion", "GlobalID": "37c38a7a-79b6-49be-be03-e054576f93c3" }, "geometry": { "type": "Point", "coordinates": [ -76.597238157202099, 39.289874772794199 ] } },
{ "type": "Feature", "properties": { "OBJECTID": 3, "BLDG_NUM": 10, "PRG_NUM": 10, "NAME": "James McHenry Elementary/Middle", "ADDRESS": "31 S Schroeder St, Baltimore, MD 21223", "CLASS": "PK-8", "CATEGORY": "EM", "x": -76.6335024, "y": 39.28741773, "GRADES": "PK-8", "ZIPCODE": "21223", "TYPE": "Traditional", "GlobalID": "f7516ada-40dc-4597-ac6f-5174a27d9753" }, "geometry": { "type": "Point", "coordinates": [ -76.633502398961497, 39.2874177338172 ] } },
{ "type": "Feature", "properties": { "OBJECTID": 4, "BLDG_NUM": 12, "PRG_NUM": 12, "NAME": "Lakeland Elementary/Middle", "ADDRESS": "2921 Stranden Rd, Baltimore, MD 21230", "CLASS": "PK-8", "CATEGORY": "EM", "x": -76.64505605, "y": 39.25374224, "GRADES": "PK-8", "ZIPCODE": "21230", "TYPE": "Traditional", "GlobalID": "74b83ab0-05a6-4f0d-9a37-cada8a3756a1" }, "geometry": { "type": "Point", "coordinates": [ -76.645056048768595, 39.253742240969999 ] } },
{ "type": "Feature", "properties": { "OBJECTID": 5, "BLDG_NUM": 13, "PRG_NUM": 13, "NAME": "Tench Tilghman Elementary/Middle", "ADDRESS": "600 N Patterson Park Ave, Baltimore, MD 21205", "CLASS": "PK-8", "CATEGORY": "EM", "x": -76.58530444, "y": 39.29800434, "GRADES": "PK-8", "ZIPCODE": "21205", "TYPE": "Traditional", "GlobalID": "f248218a-4933-4b21-a5bb-da5842572474" }, "geometry": { "type": "Point", "coordinates": [ -76.585304435417001, 39.298004335989297 ] } },
{ "type": "Feature", "properties": { "OBJECTID": 6, "BLDG_NUM": 31, "PRG_NUM": 15, "NAME": "Stadium School", "ADDRESS": "1400 Exeter Hall Ave, Baltimore, MD 21218", "CLASS": "6-8", "CATEGORY": "M", "x": -76.60241949, "y": 39.32164686, "GRADES": "6-8", "ZIPCODE": "21218", "TYPE": "Traditional", "GlobalID": "24827a9b-910c-48f5-a02a-b25de69bcd46" }, "geometry": { "type": "Point", "coordinates": [ -76.602419492205996, 39.321646864357 ] } },
{ "type": "Feature", "properties": { "OBJECTID": 7, "BLDG_NUM": 16, "PRG_NUM": 16, "NAME": "Johnston Square Elementary", "ADDRESS": "1101 Valley St, Baltimore, MD 21202", "CLASS": "PK-5", "CATEGORY": "E", "x": -76.60471814, "y": 39.30362187, "GRADES": "PK-5", "ZIPCODE": "21202", "TYPE": "Traditional", "GlobalID": "fb11216a-6e6b-43ce-bbb8-d1d5293d4687" }, "geometry": { "type": "Point", "coordinates": [ -76.604718139728107, 39.303621872448701 ] } },
{ "type": "Feature", "properties": { "OBJECTID": 8, "BLDG_NUM": 21, "PRG_NUM": 21, "NAME": "Hilton Elementary", "ADDRESS": "3301 Carlisle Ave, Baltimore, MD 21216", "CLASS": "PK-5", "CATEGORY": "E", "x": -76.67338955, "y": 39.31920818, "GRADES": "PK-5", "ZIPCODE": "21216", "TYPE": "Traditional", "GlobalID": "0fa07ac8-ef70-4648-a602-848cb33b87b0" }, "geometry": { "type": "Point", "coordinates": [ -76.673389546881594, 39.319208175224297 ] } },
{ "type": "Feature", "properties": { "OBJECTID": 9, "BLDG_NUM": 22, "PRG_NUM": 22, "NAME": "George Washington Elementary", "ADDRESS": "800 Scott St, Baltimore, MD 21230", "CLASS": "PK-5", "CATEGORY": "E", "x": -76.62904958, "y": 39.28111671, "GRADES": "PK-5", "ZIPCODE": "21230", "TYPE": "Traditional", "GlobalID": "6f856e36-7517-4fb8-88c3-0e5eab340252" }, "geometry": { "type": "Point", "coordinates": [ -76.629049580966495, 39.281116711881701 ] } },
{ "type": "Feature", "properties": { "OBJECTID": 10, "BLDG_NUM": 23, "PRG_NUM": 23, "NAME": "Wolfe Street Academy", "ADDRESS": "245 S Wolfe St, Baltimore, MD 21231", "CLASS": "PK-5", "CATEGORY": "E", "x": -76.59012096, "y": 39.28806476, "GRADES": "PK-5", "ZIPCODE": "21231", "TYPE": "Charter-Conversion", "GlobalID": "fbcf3797-be7d-4b36-a75b-4dd1efee8488" }, "geometry": { "type": "Point", "coordinates": [ -76.590120958250097, 39.2880647586368 ] } },
{ "type": "Feature", "properties": { "OBJECTID": 11, "BLDG_NUM": 27, "PRG_NUM": 27, "NAME": "Commodore John Rodgers Elementary/Middle", "ADDRESS": "100 N Chester St, Baltimore, MD 21231", "CLASS": "PK-8", "CATEGORY": "EM", "x": -76.58779725, "y": 39.29367822, "GRADES": "PK-8", "ZIPCODE": "21231", "TYPE": "Traditional", "GlobalID": "c57867cd-66c0-43b5-b81a-7a6724105aac" }, "geometry": { "type": "Point", "coordinates": [ -76.587797251449899, 39.293678219701199 ] } },
{ "type": "Feature", "properties": { "OBJECTID": 12, "BLDG_NUM": 157, "PRG_NUM": 28, "NAME": "Sandtown-Winchester Achievement Academy", "ADDRESS": "701 Gold St, Baltimore, MD 21217", "CLASS": "PK-8", "CATEGORY": "EM", "x": -76.64067651000001, "y": 39.30626912, "GRADES": "PK-8", "ZIPCODE": "21217", "TYPE": "Traditional", "GlobalID": "087e94c4-426b-4355-b325-6a1cc98893a7" }, "geometry": { "type": "Point", "coordinates": [ -76.640676510325804, 39.306269117087602 ] } },
{ "type": "Feature", "properties": { "OBJECTID": 13, "BLDG_NUM": 29, "PRG_NUM": 29, "NAME": "Matthew A. Henson Elementary", "ADDRESS": "1600 N Payson St, Baltimore, MD 21217", "CLASS": "PK-5", "CATEGORY": "E", "x": -76.64994857000001, "y": 39.30674033, "GRADES": "PK-5", "ZIPCODE": "21217", "TYPE": "Traditional", "GlobalID": "a575c846-e5ec-48b6-a3ff-fad7fd0feafd" }, "geometry": { "type": "Point", "coordinates": [ -76.649948566248597, 39.306740332624102 ] } },
{ "type": "Feature", "properties": { "OBJECTID": 14, "BLDG_NUM": 34, "PRG_NUM": 34, "NAME": "Charles Carroll Barrister Elementary", "ADDRESS": "1327 Washington Blvd, Baltimore, MD 21230", "CLASS": "PK-5", "CATEGORY": "E", "x": -76.63624033000001, "y": 39.27978649, "GRADES": "PK-5", "ZIPCODE": "21230", "TYPE": "Traditional", "GlobalID": "ddf6ca6b-ae8e-42ef-9a00-0cddaebd139e" }, "geometry": { "type": "Point", "coordinates": [ -76.636240334427995, 39.279786487622601 ] } },
{ "type": "Feature", "properties": { "OBJECTID": 15, "BLDG_NUM": 35, "PRG_NUM": 35, "NAME": "Harlem Park Elementary/Middle", "ADDRESS": "1401 W Lafayette Ave, Baltimore, MD 21217", "CLASS": "PK-8", "CATEGORY": "EM", "x": -76.64120656, "y": 39.29870487, "GRADES": "PK-8", "ZIPCODE": "21217", "TYPE": "Traditional", "GlobalID": "8871ae41-d7d8-4a59-bb7f-69c33d9c1393" }, "geometry": { "type": "Point", "coordinates": [ -76.641206561493206, 39.298704871990402 ] } },
{ "type": "Feature", "properties": { "OBJECTID": 16, "BLDG_NUM": 36, "PRG_NUM": 37, "NAME": "Harford Heights Elementary", "ADDRESS": "1919 N Broadway, Baltimore, MD 21213", "CLASS": "PK-5", "CATEGORY": "E", "x": -76.59477265, "y": 39.31347565, "GRADES": "PK-5", "ZIPCODE": "21213", "TYPE": "Traditional", "GlobalID": "09c0076e-2e4c-438e-913f-09863712b9a0" }, "geometry": { "type": "Point", "coordinates": [ -76.594772653924394, 39.313475649692798 ] } },
{ "type": "Feature", "properties": { "OBJECTID": 17, "BLDG_NUM": 39, "PRG_NUM": 39, "NAME": "Dallas F. Nicholas, Sr. Elementary", "ADDRESS": "201 E 21st St, Baltimore, MD 21218", "CLASS": "PK-5", "CATEGORY": "E", "x": -76.61348267, "y": 39.31317951, "GRADES": "PK-5", "ZIPCODE": "21218", "TYPE": "Traditional", "GlobalID": "1dbdfa76-d4ac-45cb-a739-668a412eca39" }, "geometry": { "type": "Point", "coordinates": [ -76.613482672009795, 39.313179505103697 ] } },
{ "type": "Feature", "properties": { "OBJECTID": 18, "BLDG_NUM": 44, "PRG_NUM": 44, "NAME": "Montebello Elementary/Middle", "ADDRESS": "2040 E 32nd St, Baltimore, MD 21218", "CLASS": "PK-8", "CATEGORY": "EM", "x": -76.585227, "y": 39.32770639, "GRADES": "PK-8", "ZIPCODE": "21218", "TYPE": "Traditional", "GlobalID": "87b63f36-14d1-46ec-ba4c-fcce0f6cd94f" }, "geometry": { "type": "Point", "coordinates": [ -76.585227001475005, 39.327706389176399 ] } },
{ "type": "Feature", "properties": { "OBJECTID": 19, "BLDG_NUM": 45, "PRG_NUM": 45, "NAME": "Federal Hill Preparatory Academy", "ADDRESS": "1040 William St, Baltimore, MD 21230", "CLASS": "PK-5", "CATEGORY": "E", "x": -76.61102457, "y": 39.27761275, "GRADES": "PK-5", "ZIPCODE": "21230", "TYPE": "Traditional", "GlobalID": "8e005fca-2c93-4c1a-83d8-baf98e0aee85" }, "geometry": { "type": "Point", "coordinates": [ -76.611024565602705, 39.277612749728902 ] } },
{ "type": "Feature", "properties": { "OBJECTID": 20, "BLDG_NUM": 47, "PRG_NUM": 47, "NAME": "Hampstead Hill Academy", "ADDRESS": "500 S Linwood Ave, Baltimore, MD 21224", "CLASS": "PK-8", "CATEGORY": "EM", "x": -76.57620572, "y": 39.28586469, "GRADES": "PK-8", "ZIPCODE": "21224", "TYPE": "Charter-Conversion", "GlobalID": "35ffc884-883d-4ec6-9323-75826536826a" }, "geometry": { "type": "Point", "coordinates": [ -76.5762057222679, 39.285864691786202 ] } },
{ "type": "Feature", "properties": { "OBJECTID": 21, "BLDG_NUM": 50, "PRG_NUM": 50, "NAME": "Abbottston Elementary", "ADDRESS": "1300 Gorsuch Ave, Baltimore, MD 21218", "CLASS": "PK-5", "CATEGORY": "E", "x": -76.59927481, "y": 39.32516678, "GRADES": "PK-5", "ZIPCODE": "21218", "TYPE": "Traditional", "GlobalID": "1faf8738-ade2-4399-80a2-d37d7f00d093" }, "geometry": { "type": "Point", "coordinates": [ -76.599274808007706, 39.325166778224798 ] } },
{ "type": "Feature", "properties": { "OBJECTID": 22, "BLDG_NUM": 51, "PRG_NUM": 51, "NAME": "Waverly Elementary/Middle", "ADDRESS": "3400 Ellerslie Ave, Baltimore, MD 21218", "CLASS": "PK-8", "CATEGORY": "EM", "x": -76.60554649, "y": 39.33001632, "GRADES": "PK-8", "ZIPCODE": "21218", "TYPE": "Traditional", "GlobalID": "07e20942-33ba-4c23-8149-3298dcad3243" }, "geometry": { "type": "Point", "coordinates": [ -76.6055464866633, 39.330016320330103 ] } },
{ "type": "Feature", "properties": { "OBJECTID": 23, "BLDG_NUM": 53, "PRG_NUM": 53, "NAME": "Margaret Brent Elementary/Middle", "ADDRESS": "100 E 26th St, Baltimore, MD 21218", "CLASS": "PK-8", "CATEGORY": "EM", "x": -76.61523544000001, "y": 39.31948824, "GRADES": "PK-8", "ZIPCODE": "21218", "TYPE": "Traditional", "GlobalID": "f4278b10-3def-46ba-b1bf-a95cac047e8c" }, "geometry": { "type": "Point", "coordinates": [ -76.615235435378395, 39.319488239290997 ] } },
{ "type": "Feature", "properties": { "OBJECTID": 24, "BLDG_NUM": 54, "PRG_NUM": 54, "NAME": "Barclay Elementary/Middle", "ADDRESS": "2900 Barclay St, Baltimore, MD 21218", "CLASS": "PK-8", "CATEGORY": "EM", "x": -76.61133271, "y": 39.32372382, "GRADES": "PK-8", "ZIPCODE": "21218", "TYPE": "Traditional", "GlobalID": "c0082345-d6b2-4bec-a255-11040ba83680" }, "geometry": { "type": "Point", "coordinates": [ -76.611332706319303, 39.323723819214699 ] } },
{ "type": "Feature", "properties": { "OBJECTID": 25, "BLDG_NUM": 55, "PRG_NUM": 55, "NAME": "Hampden Elementary/Middle", "ADDRESS": "3608 Chestnut Ave, Baltimore, MD 21211", "CLASS": "PK-8", "CATEGORY": "EM", "x": -76.62959678, "y": 39.33224458, "GRADES": "PK-8", "ZIPCODE": "21211", "TYPE": "Traditional", "GlobalID": "8db6baa3-f8e5-4798-813d-1dce41711476" }, "geometry": { "type": "Point", "coordinates": [ -76.629596782582198, 39.332244578646602 ] } },
{ "type": "Feature", "properties": { "OBJECTID": 26, "BLDG_NUM": 58, "PRG_NUM": 58, "NAME": "Dr. Nathan A. Pitts-Ashburton Elementary/Middle", "ADDRESS": "3935 Hilton Rd, Baltimore, MD 21215", "CLASS": "PK-8", "CATEGORY": "EM", "x": -76.66782076, "y": 39.3308463, "GRADES": "PK-8", "ZIPCODE": "21215", "TYPE": "Traditional", "GlobalID": "45be832b-0580-4864-940b-508ef6d59c0f" }, "geometry": { "type": "Point", "coordinates": [ -76.667820758812397, 39.330846301189098 ] } },
{ "type": "Feature", "properties": { "OBJECTID": 27, "BLDG_NUM": 60, "PRG_NUM": 60, "NAME": "Gwynns Falls Elementary", "ADDRESS": "2700 Gwynns Falls Pkwy, Baltimore, MD 21216", "CLASS": "PK-5", "CATEGORY": "E", "x": -76.66379338, "y": 39.31513256, "GRADES": "PK-5", "ZIPCODE": "21216", "TYPE": "Traditional", "GlobalID": "bed76dfe-d12f-4f6e-ade8-06addd4790ed" }, "geometry": { "type": "Point", "coordinates": [ -76.663793380946501, 39.3151325589726 ] } },
{ "type": "Feature", "properties": { "OBJECTID": 28, "BLDG_NUM": 61, "PRG_NUM": 61, "NAME": "Dorothy I. Height Elementary", "ADDRESS": "2011 Linden Ave, Baltimore, MD 21217", "CLASS": "PK-5", "CATEGORY": "E", "x": -76.63268026, "y": 39.31155354, "GRADES": "PK-5", "ZIPCODE": "21217", "TYPE": "Traditional", "GlobalID": "557e8c7f-fb28-44b5-bd10-84d91f92cde2" }, "geometry": { "type": "Point", "coordinates": [ -76.632680264890297, 39.311553535437 ] } },
{ "type": "Feature", "properties": { "OBJECTID": 29, "BLDG_NUM": 62, "PRG_NUM": 62, "NAME": "Park Heights Academy", "ADDRESS": "2835 Virginia Ave, Baltimore, MD 21215", "CLASS": "PK-5", "CATEGORY": "E", "x": -76.66297287, "y": 39.34479615, "GRADES": "PK-5", "ZIPCODE": "21215", "TYPE": "Traditional", "GlobalID": "9d3704b1-901d-46dd-a9c1-05054fff5773" }, "geometry": { "type": "Point", "coordinates": [ -76.662972866453202, 39.344796149258798 ] } },
{ "type": "Feature", "properties": { "OBJECTID": 30, "BLDG_NUM": 63, "PRG_NUM": 63, "NAME": "Rosemont Elementary/Middle", "ADDRESS": "2777 Presstman St, Baltimore, MD 21216", "CLASS": "PK-8", "CATEGORY": "EM", "x": -76.66286824, "y": 39.30441287, "GRADES": "PK-8", "ZIPCODE": "21216", "TYPE": "Traditional", "GlobalID": "5343c512-aeb5-4476-b116-5edadb16f908" }, "geometry": { "type": "Point", "coordinates": [ -76.662868244741702, 39.304412866058797 ] } },
{ "type": "Feature", "properties": { "OBJECTID": 31, "BLDG_NUM": 64, "PRG_NUM": 64, "NAME": "Liberty Elementary", "ADDRESS": "3901 Maine Ave, Baltimore, MD 21207", "CLASS": "PK-5", "CATEGORY": "E", "x": -76.68369156, "y": 39.32617853, "GRADES": "PK-5", "ZIPCODE": "21207", "TYPE": "Traditional", "GlobalID": "098933d6-394f-492a-84fa-2e9e1275d340" }, "geometry": { "type": "Point", "coordinates": [ -76.683691559817007, 39.326178532227999 ] } },
{ "type": "Feature", "properties": { "OBJECTID": 32, "BLDG_NUM": 66, "PRG_NUM": 66, "NAME": "Mount Royal Elementary/Middle", "ADDRESS": "121 McMechen St, Baltimore, MD 21217", "CLASS": "PK-8", "CATEGORY": "EM", "x": -76.62381026, "y": 39.30874854, "GRADES": "PK-8", "ZIPCODE": "21217", "TYPE": "Traditional", "GlobalID": "388c1f2a-d2b7-4e56-b220-8d8419d2f084" }, "geometry": { "type": "Point", "coordinates": [ -76.623810260437196, 39.3087485376711 ] } },
{ "type": "Feature", "properties": { "OBJECTID": 33, "BLDG_NUM": 75, "PRG_NUM": 75, "NAME": "Katherine Johnson Global Academy", "ADDRESS": "1101 Braddish Ave, Baltimore, MD 21216", "CLASS": "3-8", "CATEGORY": "EM", "x": -76.65921342, "y": 39.30049736, "GRADES": "3-8", "ZIPCODE": "21216", "TYPE": "Traditional", "GlobalID": "12a0b73c-01e6-4de7-a37a-76e9df8a60ff" }, "geometry": { "type": "Point", "coordinates": [ -76.659213416501501, 39.300497364889999 ] } },
{ "type": "Feature", "properties": { "OBJECTID": 34, "BLDG_NUM": 76, "PRG_NUM": 76, "NAME": "Francis Scott Key Elementary/Middle", "ADDRESS": "1425 E Fort Ave, Baltimore, MD 21230", "CLASS": "PK-8", "CATEGORY": "EM", "x": -76.59455135, "y": 39.26829877, "GRADES": "PK-8", "ZIPCODE": "21230", "TYPE": "Traditional", "GlobalID": "e48f4328-0ad5-4070-a2dd-987f2de7bfc3" }, "geometry": { "type": "Point", "coordinates": [ -76.594551349648597, 39.268298768955397 ] } },
{ "type": "Feature", "properties": { "OBJECTID": 35, "BLDG_NUM": 81, "PRG_NUM": 81, "NAME": "North Bend Elementary/Middle", "ADDRESS": "181 N Bend Rd, Baltimore, MD 21229", "CLASS": "PK-8", "CATEGORY": "EM", "x": -76.705318, "y": 39.28349043, "GRADES": "PK-8", "ZIPCODE": "21229", "TYPE": "Traditional", "GlobalID": "5a15f367-a675-48c8-8b87-81c7db3a6ebc" }, "geometry": { "type": "Point", "coordinates": [ -76.705317996451896, 39.283490428916899 ] } },
{ "type": "Feature", "properties": { "OBJECTID": 36, "BLDG_NUM": 83, "PRG_NUM": 83, "NAME": "William Paca Elementary", "ADDRESS": "200 N Lakewood Ave, Baltimore, MD 21224", "CLASS": "PK-5", "CATEGORY": "E", "x": -76.57985627, "y": 39.29536426, "GRADES": "PK-5", "ZIPCODE": "21224", "TYPE": "Traditional", "GlobalID": "362d4c23-c866-4666-9d93-57150a3669f5" }, "geometry": { "type": "Point", "coordinates": [ -76.579856268128594, 39.295364258360202 ] } },
{ "type": "Feature", "properties": { "OBJECTID": 37, "BLDG_NUM": 84, "PRG_NUM": 84, "NAME": "Thomas Johnson Elementary/Middle", "ADDRESS": "100 E Heath St, Baltimore, MD 21230", "CLASS": "PK-8", "CATEGORY": "EM", "x": -76.61091437, "y": 39.27080238, "GRADES": "PK-8", "ZIPCODE": "21230", "TYPE": "Traditional", "GlobalID": "0b6ecfc5-3029-4a41-9b0a-ba4b465b98fe" }, "geometry": { "type": "Point", "coordinates": [ -76.610914365011197, 39.270802382905799 ] } },
{ "type": "Feature", "properties": { "OBJECTID": 38, "BLDG_NUM": 85, "PRG_NUM": 85, "NAME": "Fort Worthington Elementary/Middle", "ADDRESS": "2710 E Hoffman St, Baltimore, MD 21213", "CLASS": "K-8", "CATEGORY": "EM", "x": -76.57871446, "y": 39.30720346, "GRADES": "K-8", "ZIPCODE": "21213", "TYPE": "Traditional", "GlobalID": "10fd8deb-0fbe-48cd-ac86-37e0a706286c" }, "geometry": { "type": "Point", "coordinates": [ -76.578714456456595, 39.307203460671801 ] } },
{ "type": "Feature", "properties": { "OBJECTID": 39, "BLDG_NUM": 86, "PRG_NUM": 86, "NAME": "Lakewood Elementary", "ADDRESS": "2625 Federal St, Baltimore, MD 21213", "CLASS": "PK", "CATEGORY": "E", "x": -76.58087269000001, "y": 39.30880267, "GRADES": "PK", "ZIPCODE": "21213", "TYPE": "Traditional", "GlobalID": "f1ea6f6e-4dfa-4260-aaae-9db9dfe8e4fa" }, "geometry": { "type": "Point", "coordinates": [ -76.580872686369304, 39.308802670844102 ] } },
{ "type": "Feature", "properties": { "OBJECTID": 40, "BLDG_NUM": 87, "PRG_NUM": 87, "NAME": "Windsor Hills Elementary/Middle", "ADDRESS": "4001 Alto Rd, Baltimore, MD 21216", "CLASS": "PK-8", "CATEGORY": "EM", "x": -76.6828331, "y": 39.31644459, "GRADES": "PK-8", "ZIPCODE": "21216", "TYPE": "Traditional", "GlobalID": "3bc288d1-72e1-4f1b-940b-1c23253eed6c" }, "geometry": { "type": "Point", "coordinates": [ -76.682833095174701, 39.316444587080703 ] } },
{ "type": "Feature", "properties": { "OBJECTID": 41, "BLDG_NUM": 88, "PRG_NUM": 88, "NAME": "Wildwood Elementary/Middle School", "ADDRESS": "621 Wildwood Pkwy, Baltimore, MD 21229", "CLASS": "PK-8", "CATEGORY": "EM", "x": -76.68331012, "y": 39.29497866, "GRADES": "PK-8", "ZIPCODE": "21229", "TYPE": "Traditional", "GlobalID": "8ceeb97d-080d-4d31-8ee3-c499e772b814" }, "geometry": { "type": "Point", "coordinates": [ -76.683310121127306, 39.294978662971403 ] } },
{ "type": "Feature", "properties": { "OBJECTID": 42, "BLDG_NUM": 95, "PRG_NUM": 95, "NAME": "Franklin Square Elementary/Middle", "ADDRESS": "1400 W Lexington St, Baltimore, MD 21223", "CLASS": "PK-8", "CATEGORY": "EM", "x": -76.6409158, "y": 39.29106, "GRADES": "PK-8", "ZIPCODE": "21223", "TYPE": "Traditional", "GlobalID": "0ee5e65d-3759-44c6-8104-d1d7f6f050ac" }, "geometry": { "type": "Point", "coordinates": [ -76.640915800303205, 39.291060004921803 ] } },
{ "type": "Feature", "properties": { "OBJECTID": 43, "BLDG_NUM": 97, "PRG_NUM": 97, "NAME": "Collington Square Elementary/Middle", "ADDRESS": "1409 N Collington Ave, Baltimore, MD 21213", "CLASS": "PK-8", "CATEGORY": "EM", "x": -76.58675458, "y": 39.30733659, "GRADES": "PK-8", "ZIPCODE": "21213", "TYPE": "Traditional", "GlobalID": "1f3e4737-0005-4bbe-bf03-b7a613010c7e" }, "geometry": { "type": "Point", "coordinates": [ -76.586754576005205, 39.307336588211001 ] } },
{ "type": "Feature", "properties": { "OBJECTID": 44, "BLDG_NUM": 105, "PRG_NUM": 105, "NAME": "Moravia Park Elementary", "ADDRESS": "6201 Frankford Ave, Baltimore, MD 21206", "CLASS": "PK-5", "CATEGORY": "E", "x": -76.54063588, "y": 39.31990416, "GRADES": "PK-5", "ZIPCODE": "21206", "TYPE": "Traditional", "GlobalID": "92735db2-0cf6-41e1-b313-540817707b49" }, "geometry": { "type": "Point", "coordinates": [ -76.5406358824563, 39.319904163742699 ] } },
{ "type": "Feature", "properties": { "OBJECTID": 45, "BLDG_NUM": 122, "PRG_NUM": 122, "NAME": "The Historic Samuel Coleridge-Taylor Elementary", "ADDRESS": "507 W Preston St, Baltimore, MD 21201", "CLASS": "PK-5", "CATEGORY": "E", "x": -76.62645491000001, "y": 39.29873656, "GRADES": "PK-5", "ZIPCODE": "21201", "TYPE": "Traditional", "GlobalID": "a748da8a-b39c-4cec-ad8f-36b3f5bca41a" }, "geometry": { "type": "Point", "coordinates": [ -76.626454913574705, 39.298736564627298 ] } },
{ "type": "Feature", "properties": { "OBJECTID": 46, "BLDG_NUM": 124, "PRG_NUM": 124, "NAME": "Bay-Brook Elementary/Middle", "ADDRESS": "4301 10th St, Baltimore, MD 21225", "CLASS": "PK-8", "CATEGORY": "EM", "x": -76.59853528, "y": 39.2255457, "GRADES": "PK-8", "ZIPCODE": "21225", "TYPE": "Traditional", "GlobalID": "1b360216-0784-4fbc-a77c-c486f1fec836" }, "geometry": { "type": "Point", "coordinates": [ -76.598535279671296, 39.225545700216998 ] } },
{ "type": "Feature", "properties": { "OBJECTID": 47, "BLDG_NUM": 125, "PRG_NUM": 125, "NAME": "Furman Templeton Preparatory Academy", "ADDRESS": "1200 Pennsylvania Ave, Baltimore, MD 21217", "CLASS": "PK-5", "CATEGORY": "E", "x": -76.63021611000001, "y": 39.29964867, "GRADES": "PK-5", "ZIPCODE": "21217", "TYPE": "Charter-Conversion", "GlobalID": "955d8945-a05f-4dbc-95f1-1d6caf47d918" }, "geometry": { "type": "Point", "coordinates": [ -76.630216111526906, 39.2996486719397 ] } },
{ "type": "Feature", "properties": { "OBJECTID": 48, "BLDG_NUM": 130, "PRG_NUM": 130, "NAME": "Booker T. Washington Middle", "ADDRESS": "1301 McCulloh St, Baltimore, MD 21217", "CLASS": "6-8", "CATEGORY": "M", "x": -76.62843229000001, "y": 39.30322985, "GRADES": "6-8", "ZIPCODE": "21217", "TYPE": "Traditional", "GlobalID": "a80e9fa9-4c09-40e4-9492-3a1b9a3e53ab" }, "geometry": { "type": "Point", "coordinates": [ -76.628432286603697, 39.303229851438701 ] } },
{ "type": "Feature", "properties": { "OBJECTID": 49, "BLDG_NUM": 134, "PRG_NUM": 134, "NAME": "Walter P. Carter Elementary/Middle", "ADDRESS": "820 E 43rd St, Baltimore, MD 21212", "CLASS": "PK-8", "CATEGORY": "EM", "x": -76.60380089, "y": 39.34341197, "GRADES": "PK-8", "ZIPCODE": "21212", "TYPE": "Traditional", "GlobalID": "bfec6f6a-2d42-4291-93af-10c8bddd8b31" }, "geometry": { "type": "Point", "coordinates": [ -76.603800893468502, 39.343411966589898 ] } },
{ "type": "Feature", "properties": { "OBJECTID": 50, "BLDG_NUM": 142, "PRG_NUM": 142, "NAME": "Robert W. Coleman Elementary", "ADDRESS": "2400 Windsor Ave, Baltimore, MD 21216", "CLASS": "PK-5", "CATEGORY": "E", "x": -76.65527842, "y": 39.31284251, "GRADES": "PK-5", "ZIPCODE": "21216", "TYPE": "Traditional", "GlobalID": "63619d6d-93db-43e9-8e48-045db51edc48" }, "geometry": { "type": "Point", "coordinates": [ -76.655278416557195, 39.312842509742097 ] } },
{ "type": "Feature", "properties": { "OBJECTID": 51, "BLDG_NUM": 144, "PRG_NUM": 144, "NAME": "Billie Holiday Elementary", "ADDRESS": "2400 W Mosher St, Baltimore, MD 21216", "CLASS": "PK-2", "CATEGORY": "E", "x": -76.6556506, "y": 39.29973933, "GRADES": "PK-2", "ZIPCODE": "21216", "TYPE": "Traditional", "GlobalID": "add8ece2-7803-48a2-8185-3ff8f9665698" }, "geometry": { "type": "Point", "coordinates": [ -76.655650603315294, 39.299739328176202 ] } },
{ "type": "Feature", "properties": { "OBJECTID": 52, "BLDG_NUM": 150, "PRG_NUM": 150, "NAME": "Mary Ann Winterling Elementary at Bentalou", "ADDRESS": "220 N Bentalou St, Baltimore, MD 21223", "CLASS": "PK-5", "CATEGORY": "E", "x": -76.65329666, "y": 39.29170296, "GRADES": "PK-5", "ZIPCODE": "21223", "TYPE": "Traditional", "GlobalID": "21d82b36-a3ec-4326-b4fc-f8765ca46bb2" }, "geometry": { "type": "Point", "coordinates": [ -76.653296659549696, 39.291702959198297 ] } },
{ "type": "Feature", "properties": { "OBJECTID": 53, "BLDG_NUM": 159, "PRG_NUM": 159, "NAME": "Cherry Hill Elementary/Middle", "ADDRESS": "801 Bridgeview Rd, Baltimore, MD 21225", "CLASS": "3-8", "CATEGORY": "EM", "x": -76.62408303, "y": 39.24787717, "GRADES": "3-8", "ZIPCODE": "21225", "TYPE": "Traditional", "GlobalID": "adc8810f-b272-442f-9494-6751a9d3df92" }, "geometry": { "type": "Point", "coordinates": [ -76.624083033105805, 39.247877172949003 ] } },
{ "type": "Feature", "properties": { "OBJECTID": 54, "BLDG_NUM": 164, "PRG_NUM": 164, "NAME": "Arundel Elementary", "ADDRESS": "2400 Round Rd, Baltimore, MD 21225", "CLASS": "PK-2", "CATEGORY": "E", "x": -76.6281948, "y": 39.25203996, "GRADES": "PK-2", "ZIPCODE": "21225", "TYPE": "Traditional", "GlobalID": "c52b40ed-4b27-4b3a-8ce1-e8f78b45be7a" }, "geometry": { "type": "Point", "coordinates": [ -76.628194799037203, 39.252039964107098 ] } },
{ "type": "Feature", "properties": { "OBJECTID": 55, "BLDG_NUM": 413, "PRG_NUM": 178, "NAME": "Excel Academy at Francis M. Wood High", "ADDRESS": "1001 W Saratoga St, Baltimore, MD 21223", "CLASS": "7-12", "CATEGORY": "Alternative", "x": -76.63443312, "y": 39.29230366, "GRADES": "7-12", "ZIPCODE": "21223", "TYPE": "Alternative", "GlobalID": "7285bdd0-71f3-43bb-abac-6cfa34d7a472" }, "geometry": { "type": "Point", "coordinates": [ -76.634433118414606, 39.292303661627699 ] } },
{ "type": "Feature", "properties": { "OBJECTID": 56, "BLDG_NUM": 201, "PRG_NUM": 201, "NAME": "Dickey Hill Elementary/Middle", "ADDRESS": "5025 Dickey Hill Rd, Baltimore, MD 21207", "CLASS": "PK-8", "CATEGORY": "EM", "x": -76.70342037, "y": 39.31152302, "GRADES": "PK-8", "ZIPCODE": "21207", "TYPE": "Traditional", "GlobalID": "a647d515-459c-419a-b6af-5a1cdbace2ed" }, "geometry": { "type": "Point", "coordinates": [ -76.703420374987104, 39.311523016204802 ] } },
{ "type": "Feature", "properties": { "OBJECTID": 57, "BLDG_NUM": 203, "PRG_NUM": 203, "NAME": "Maree G. Farring Elementary/Middle", "ADDRESS": "300 Pontiac Ave, Baltimore, MD 21225", "CLASS": "PK-8", "CATEGORY": "EM", "x": -76.60698291, "y": 39.23666842, "GRADES": "PK-8", "ZIPCODE": "21225", "TYPE": "Traditional", "GlobalID": "2b5962ed-0ce3-4bcf-b74a-41ddb074ebfc" }, "geometry": { "type": "Point", "coordinates": [ -76.606982910577102, 39.236668424113098 ] } },
{ "type": "Feature", "properties": { "OBJECTID": 58, "BLDG_NUM": 204, "PRG_NUM": 204, "NAME": "Mary E. Rodman Elementary", "ADDRESS": "3510 W Mulberry St, Baltimore, MD 21229", "CLASS": "PK-5", "CATEGORY": "E", "x": -76.67663609, "y": 39.29198636, "GRADES": "PK-5", "ZIPCODE": "21229", "TYPE": "Traditional", "GlobalID": "0be16c63-e246-4ff8-939e-c2daa3a23e07" }, "geometry": { "type": "Point", "coordinates": [ -76.676636094032105, 39.291986355906097 ] } },
{ "type": "Feature", "properties": { "OBJECTID": 59, "BLDG_NUM": 205, "PRG_NUM": 205, "NAME": "Woodhome Elementary/Middle", "ADDRESS": "7300 Moyer Ave, Baltimore, MD 21234", "CLASS": "PK-8", "CATEGORY": "EM", "x": -76.54065847, "y": 39.36673989, "GRADES": "PK-8", "ZIPCODE": "21234", "TYPE": "Traditional", "GlobalID": "ba805a2a-3a44-42aa-83ba-c9ce73df8834" }, "geometry": { "type": "Point", "coordinates": [ -76.540658465275001, 39.3667398909474 ] } },
{ "type": "Feature", "properties": { "OBJECTID": 60, "BLDG_NUM": 206, "PRG_NUM": 206, "NAME": "Furley Elementary", "ADDRESS": "4633 Furley Ave, Baltimore, MD 21206", "CLASS": "PK-5", "CATEGORY": "E", "x": -76.55242964, "y": 39.32873264, "GRADES": "PK-5", "ZIPCODE": "21206", "TYPE": "Traditional", "GlobalID": "62c69ab0-a5c3-4b13-926f-3e0811fa309f" }, "geometry": { "type": "Point", "coordinates": [ -76.552429637227604, 39.328732636333598 ] } },
{ "type": "Feature", "properties": { "OBJECTID": 61, "BLDG_NUM": 207, "PRG_NUM": 207, "NAME": "Curtis Bay Elementary", "ADDRESS": "4301 W Bay Ave, Baltimore, MD 21225", "CLASS": "PK-5", "CATEGORY": "E", "x": -76.59300756, "y": 39.22596323, "GRADES": "PK-5", "ZIPCODE": "21225", "TYPE": "Traditional", "GlobalID": "ca0d7b5e-7dfb-4ae2-aae3-036f92fb199d" }, "geometry": { "type": "Point", "coordinates": [ -76.593007564837805, 39.225963228642897 ] } },
{ "type": "Feature", "properties": { "OBJECTID": 62, "BLDG_NUM": 210, "PRG_NUM": 210, "NAME": "Hazelwood Elementary/Middle", "ADDRESS": "4517 Hazelwood Ave, Baltimore, MD 21206", "CLASS": "PK-8", "CATEGORY": "EM", "x": -76.53867125, "y": 39.33866885, "GRADES": "PK-8", "ZIPCODE": "21206", "TYPE": "Traditional", "GlobalID": "141e022b-5ed3-480d-af46-16124c0caac0" }, "geometry": { "type": "Point", "coordinates": [ -76.538671249556501, 39.338668850165803 ] } },
{ "type": "Feature", "properties": { "OBJECTID": 63, "BLDG_NUM": 211, "PRG_NUM": 211, "NAME": "Gardenville Elementary", "ADDRESS": "5300 Belair Rd, Baltimore, MD 21206", "CLASS": "PK-5", "CATEGORY": "E", "x": -76.55281842, "y": 39.3387509, "GRADES": "PK-5", "ZIPCODE": "21206", "TYPE": "Traditional", "GlobalID": "d560e97b-b662-45f2-95a3-b2c9c558b88e" }, "geometry": { "type": "Point", "coordinates": [ -76.552818415821704, 39.338750901121799 ] } },
{ "type": "Feature", "properties": { "OBJECTID": 64, "BLDG_NUM": 212, "PRG_NUM": 212, "NAME": "Garrett Heights Elementary/Middle", "ADDRESS": "2800 Ailsa Ave, Baltimore, MD 21214", "CLASS": "PK-8", "CATEGORY": "EM", "x": -76.56986379, "y": 39.34945404, "GRADES": "PK-8", "ZIPCODE": "21214", "TYPE": "Traditional", "GlobalID": "97b2ccfd-24b2-4fd0-a1c8-a8e16e8b4e85" }, "geometry": { "type": "Point", "coordinates": [ -76.569863788738203, 39.349454035748003 ] } },
{ "type": "Feature", "properties": { "OBJECTID": 65, "BLDG_NUM": 213, "PRG_NUM": 213, "NAME": "Govans Elementary", "ADDRESS": "5801 York Rd, Baltimore, MD 21212", "CLASS": "PK-5", "CATEGORY": "E", "x": -76.60853738, "y": 39.36047254, "GRADES": "PK-5", "ZIPCODE": "21212", "TYPE": "Charter-Conversion", "GlobalID": "73c6145c-5de7-4bd5-856f-0e819145d1c0" }, "geometry": { "type": "Point", "coordinates": [ -76.608537378561493, 39.360472538026102 ] } },
{ "type": "Feature", "properties": { "OBJECTID": 66, "BLDG_NUM": 215, "PRG_NUM": 215, "NAME": "Highlandtown Elementary/Middle #215", "ADDRESS": "3223 E Pratt St, Baltimore, MD 21224", "CLASS": "PK-8", "CATEGORY": "EM", "x": -76.57045555000001, "y": 39.28996476, "GRADES": "PK-8", "ZIPCODE": "21224", "TYPE": "Traditional", "GlobalID": "8cf846f0-9523-4910-bc40-0cb9d75554bd" }, "geometry": { "type": "Point", "coordinates": [ -76.570455554439107, 39.289964759681297 ] } },
{ "type": "Feature", "properties": { "OBJECTID": 67, "BLDG_NUM": 217, "PRG_NUM": 217, "NAME": "Belmont Elementary", "ADDRESS": "1406 N Ellamont St, Baltimore, MD 21216", "CLASS": "PK-5", "CATEGORY": "E", "x": -76.67084876, "y": 39.30365371, "GRADES": "PK-5", "ZIPCODE": "21216", "TYPE": "Traditional", "GlobalID": "fe5f21b2-6a28-4eec-a059-2bc22608e904" }, "geometry": { "type": "Point", "coordinates": [ -76.670848761534003, 39.303653706237199 ] } },
{ "type": "Feature", "properties": { "OBJECTID": 68, "BLDG_NUM": 219, "PRG_NUM": 219, "NAME": "Yorkwood Elementary", "ADDRESS": "5931 Yorkwood Rd, Baltimore, MD 21239", "CLASS": "PK-5", "CATEGORY": "E", "x": -76.58149357000001, "y": 39.36337569, "GRADES": "PK-5", "ZIPCODE": "21239", "TYPE": "Traditional", "GlobalID": "815d4da7-75f6-46c3-8ecc-37ada9d63fd8" }, "geometry": { "type": "Point", "coordinates": [ -76.581493569352205, 39.363375689441 ] } },
{ "type": "Feature", "properties": { "OBJECTID": 69, "BLDG_NUM": 220, "PRG_NUM": 220, "NAME": "Morrell Park Elementary/Middle", "ADDRESS": "2601 Tolley St, Baltimore, MD 21230", "CLASS": "PK-8", "CATEGORY": "EM", "x": -76.65089875, "y": 39.26320664, "GRADES": "PK-8", "ZIPCODE": "21230", "TYPE": "Traditional", "GlobalID": "0c4d2a90-b223-4bd3-b7bb-9f0ad8bab6c7" }, "geometry": { "type": "Point", "coordinates": [ -76.650898747480596, 39.263206635773003 ] } },
{ "type": "Feature", "properties": { "OBJECTID": 70, "BLDG_NUM": 221, "PRG_NUM": 221, "NAME": "The Mount Washington School", "ADDRESS": "1801 Sulgrave Ave, Baltimore, MD 21209", "CLASS": "PK-8", "CATEGORY": "EM", "x": -76.65527198, "y": 39.36578677, "GRADES": "PK-8", "ZIPCODE": "21209", "TYPE": "Traditional", "GlobalID": "3519bff0-fb96-4c13-ac1b-316087cb9d52" }, "geometry": { "type": "Point", "coordinates": [ -76.655271984477807, 39.365786773870198 ] } },
{ "type": "Feature", "properties": { "OBJECTID": 71, "BLDG_NUM": 223, "PRG_NUM": 223, "NAME": "Pimlico Elementary/Middle", "ADDRESS": "4849 Pimlico Rd, Baltimore, MD 21215", "CLASS": "PK-8", "CATEGORY": "EM", "x": -76.66806062000001, "y": 39.3479546, "GRADES": "PK-8", "ZIPCODE": "21215", "TYPE": "Charter-Conversion", "GlobalID": "fdce698b-b064-4f83-87c7-311c609cd0ab" }, "geometry": { "type": "Point", "coordinates": [ -76.668060616572205, 39.347954597190501 ] } },
{ "type": "Feature", "properties": { "OBJECTID": 72, "BLDG_NUM": 225, "PRG_NUM": 225, "NAME": "Westport Academy", "ADDRESS": "2401 Nevada St, Baltimore, MD 21230", "CLASS": "PK-8", "CATEGORY": "EM", "x": -76.6379396, "y": 39.26222262, "GRADES": "PK-8", "ZIPCODE": "21230", "TYPE": "Traditional", "GlobalID": "58e4c9b6-8fb6-467d-809d-201d7347f419" }, "geometry": { "type": "Point", "coordinates": [ -76.637939598554595, 39.262222624130899 ] } },
{ "type": "Feature", "properties": { "OBJECTID": 73, "BLDG_NUM": 226, "PRG_NUM": 226, "NAME": "Violetville Elementary/Middle", "ADDRESS": "1207 Pine Heights Ave, Baltimore, MD 21229", "CLASS": "PK-8", "CATEGORY": "EM", "x": -76.67418178, "y": 39.26781385, "GRADES": "PK-8", "ZIPCODE": "21229", "TYPE": "Traditional", "GlobalID": "42e8fbc6-c5c9-44fe-a14f-4ff0c6f522fd" }, "geometry": { "type": "Point", "coordinates": [ -76.674181779785499, 39.267813854430301 ] } },
{ "type": "Feature", "properties": { "OBJECTID": 74, "BLDG_NUM": 228, "PRG_NUM": 228, "NAME": "John Ruhrah Elementary/Middle", "ADDRESS": "701 Rappolla St, Baltimore, MD 21224", "CLASS": "PK-8", "CATEGORY": "EM", "x": -76.55253259, "y": 39.28435015, "GRADES": "PK-8", "ZIPCODE": "21224", "TYPE": "Traditional", "GlobalID": "9ab01705-7013-4427-b59b-8abdbd0b1486" }, "geometry": { "type": "Point", "coordinates": [ -76.552532588718805, 39.284350146218003 ] } },
{ "type": "Feature", "properties": { "OBJECTID": 75, "BLDG_NUM": 229, "PRG_NUM": 229, "NAME": "Holabird Academy", "ADDRESS": "1500 Imla St, Baltimore, MD 21224", "CLASS": "PK-8", "CATEGORY": "EM", "x": -76.53857813, "y": 39.27605648, "GRADES": "PK-8", "ZIPCODE": "21224", "TYPE": "Traditional", "GlobalID": "bf078a8c-04b3-494f-9a37-2ee1dcc5e66d" }, "geometry": { "type": "Point", "coordinates": [ -76.538578133426398, 39.276056475454801 ] } },
{ "type": "Feature", "properties": { "OBJECTID": 76, "BLDG_NUM": 231, "PRG_NUM": 231, "NAME": "Belair-Edison Elementary/Middle", "ADDRESS": "3536 Brehms Ln, Baltimore, MD 21213", "CLASS": "PK-8", "CATEGORY": "EM", "x": -76.5662173, "y": 39.32136784, "GRADES": "PK-8", "ZIPCODE": "21213", "TYPE": "Charter-Conversion", "GlobalID": "66eb3763-3415-4b0d-b8ba-0915d02ab062" }, "geometry": { "type": "Point", "coordinates": [ -76.566217301107301, 39.321367837278501 ] } },
{ "type": "Feature", "properties": { "OBJECTID": 77, "BLDG_NUM": 232, "PRG_NUM": 232, "NAME": "Thomas Jefferson Elementary/Middle", "ADDRESS": "605 Dryden Dr, Baltimore, MD 21229", "CLASS": "PK-8", "CATEGORY": "EM", "x": -76.69815941, "y": 39.29548507, "GRADES": "PK-8", "ZIPCODE": "21229", "TYPE": "Traditional", "GlobalID": "b2a7f2aa-e725-4cdf-ad54-1e62886404d7" }, "geometry": { "type": "Point", "coordinates": [ -76.6981594091652, 39.295485069116303 ] } },
{ "type": "Feature", "properties": { "OBJECTID": 78, "BLDG_NUM": 233, "PRG_NUM": 233, "NAME": "Roland Park Elementary/Middle", "ADDRESS": "5207 Roland Ave, Baltimore, MD 21210", "CLASS": "PK-8", "CATEGORY": "EM", "x": -76.63419161, "y": 39.35732194, "GRADES": "PK-8", "ZIPCODE": "21210", "TYPE": "Traditional", "GlobalID": "552613bf-0465-4aac-8f14-f2b286ce70f6" }, "geometry": { "type": "Point", "coordinates": [ -76.634191613545099, 39.357321939246297 ] } },
{ "type": "Feature", "properties": { "OBJECTID": 79, "BLDG_NUM": 234, "PRG_NUM": 234, "NAME": "Arlington Elementary/Middle", "ADDRESS": "3705 W Rogers Ave, Baltimore, MD 21215", "CLASS": "PK-5", "CATEGORY": "E", "x": -76.68446747, "y": 39.35030556, "GRADES": "PK-5", "ZIPCODE": "21215", "TYPE": "Traditional", "GlobalID": "aa9113c6-f80a-4be0-b029-cc5b66d272a9" }, "geometry": { "type": "Point", "coordinates": [ -76.684467470449903, 39.3503055571719 ] } },
{ "type": "Feature", "properties": { "OBJECTID": 80, "BLDG_NUM": 235, "PRG_NUM": 235, "NAME": "Glenmount Elementary/Middle", "ADDRESS": "6211 Walther Ave, Baltimore, MD 21206", "CLASS": "PK-8", "CATEGORY": "EM", "x": -76.54130052, "y": 39.35238319, "GRADES": "PK-8", "ZIPCODE": "21206", "TYPE": "Traditional", "GlobalID": "a4a23420-0944-4181-adc0-8f9c3866278a" }, "geometry": { "type": "Point", "coordinates": [ -76.541300517916, 39.352383185001301 ] } },
{ "type": "Feature", "properties": { "OBJECTID": 81, "BLDG_NUM": 236, "PRG_NUM": 236, "NAME": "Hamilton Elementary/Middle", "ADDRESS": "6101 Old Harford Rd, Baltimore, MD 21214", "CLASS": "PK-8", "CATEGORY": "EM", "x": -76.55772968, "y": 39.3597894, "GRADES": "PK-8", "ZIPCODE": "21214", "TYPE": "Traditional", "GlobalID": "2635ff5c-9532-4185-b59f-d7ad5c530607" }, "geometry": { "type": "Point", "coordinates": [ -76.557729681103893, 39.359789401594703 ] } },
{ "type": "Feature", "properties": { "OBJECTID": 82, "BLDG_NUM": 237, "PRG_NUM": 237, "NAME": "Highlandtown Elementary/Middle #237", "ADDRESS": "231 S Eaton St, Baltimore, MD 21224", "CLASS": "PK-8", "CATEGORY": "EM", "x": -76.56520446, "y": 39.28916078, "GRADES": "PK-8", "ZIPCODE": "21224", "TYPE": "Traditional", "GlobalID": "e067ae6b-b6e0-4a1b-9105-d19933faeaf7" }, "geometry": { "type": "Point", "coordinates": [ -76.565204458664695, 39.289160778850999 ] } },
{ "type": "Feature", "properties": { "OBJECTID": 83, "BLDG_NUM": 239, "PRG_NUM": 239, "NAME": "Benjamin Franklin High at Masonville Cove", "ADDRESS": "1201 Cambria St, Baltimore, MD 21225", "CLASS": "9-12", "CATEGORY": "H", "x": -76.59343808, "y": 39.23271963, "GRADES": "9-12", "ZIPCODE": "21225", "TYPE": "Traditional", "GlobalID": "e0fbae1e-54b4-4ab2-848d-5a8b50e932c1" }, "geometry": { "type": "Point", "coordinates": [ -76.593438076495303, 39.232719626077099 ] } },
{ "type": "Feature", "properties": { "OBJECTID": 84, "BLDG_NUM": 240, "PRG_NUM": 240, "NAME": "Graceland Park/O'Donnell Heights Elementary/Middle", "ADDRESS": "6300 O'Donnell St, Baltimore, MD 21224", "CLASS": "PK-8", "CATEGORY": "EM", "x": -76.54000004, "y": 39.28223499, "GRADES": "PK-8", "ZIPCODE": "21224", "TYPE": "Traditional", "GlobalID": "23bd269f-9797-4af7-a820-c3f53a16a741" }, "geometry": { "type": "Point", "coordinates": [ -76.540000041605197, 39.282234985192403 ] } },
{ "type": "Feature", "properties": { "OBJECTID": 85, "BLDG_NUM": 241, "PRG_NUM": 241, "NAME": "Fallstaff Elementary/Middle", "ADDRESS": "3801 Fallstaff Rd, Baltimore, MD 21215", "CLASS": "PK-8", "CATEGORY": "EM", "x": -76.70545335, "y": 39.36248029, "GRADES": "PK-8", "ZIPCODE": "21215", "TYPE": "Traditional", "GlobalID": "081816c1-e59a-4b0e-8f18-bc9635ca0530" }, "geometry": { "type": "Point", "coordinates": [ -76.705453350434297, 39.362480288909502 ] } },
{ "type": "Feature", "properties": { "OBJECTID": 86, "BLDG_NUM": 242, "PRG_NUM": 242, "NAME": "Northwood Elementary", "ADDRESS": "5201 Loch Raven Blvd, Baltimore, MD 21239", "CLASS": "PK-5", "CATEGORY": "E", "x": -76.58947285000001, "y": 39.35279104, "GRADES": "PK-5", "ZIPCODE": "21239", "TYPE": "Traditional", "GlobalID": "d5cc9669-3109-4c88-b3b9-1baad913b417" }, "geometry": { "type": "Point", "coordinates": [ -76.589472847643805, 39.352791037443701 ] } },
{ "type": "Feature", "properties": { "OBJECTID": 87, "BLDG_NUM": 243, "PRG_NUM": 243, "NAME": "Armistead Gardens Elementary/Middle", "ADDRESS": "5001 E Eager St, Baltimore, MD 21205", "CLASS": "PK-8", "CATEGORY": "EM", "x": -76.55285739, "y": 39.30490862, "GRADES": "PK-8", "ZIPCODE": "21205", "TYPE": "Traditional", "GlobalID": "564300d7-98ee-4b30-aeb4-3acff779e060" }, "geometry": { "type": "Point", "coordinates": [ -76.552857386437097, 39.3049086234127 ] } },
{ "type": "Feature", "properties": { "OBJECTID": 88, "BLDG_NUM": 245, "PRG_NUM": 245, "NAME": "Leith Walk Elementary/Middle", "ADDRESS": "1235 Sherwood Ave, Baltimore, MD 21239", "CLASS": "PK-8", "CATEGORY": "EM", "x": -76.59123803, "y": 39.36480997, "GRADES": "PK-8", "ZIPCODE": "21239", "TYPE": "Traditional", "GlobalID": "b15c156f-ebd4-4954-b3e8-dfb6e5d5b96b" }, "geometry": { "type": "Point", "coordinates": [ -76.591238033735493, 39.364809970794198 ] } },
{ "type": "Feature", "properties": { "OBJECTID": 89, "BLDG_NUM": 246, "PRG_NUM": 246, "NAME": "Beechfield Elementary/Middle", "ADDRESS": "301 S Beechfield Ave, Baltimore, MD 21229", "CLASS": "PK-8", "CATEGORY": "EM", "x": -76.69372216, "y": 39.28069516, "GRADES": "PK-8", "ZIPCODE": "21229", "TYPE": "Traditional", "GlobalID": "0b7d011b-ca16-439c-b3a8-c130ca74ed4c" }, "geometry": { "type": "Point", "coordinates": [ -76.693722157569596, 39.280695158855004 ] } },
{ "type": "Feature", "properties": { "OBJECTID": 90, "BLDG_NUM": 247, "PRG_NUM": 247, "NAME": "Cross Country Elementary/Middle", "ADDRESS": "6100 Cross Country Blvd, Baltimore, MD 21215", "CLASS": "PK-8", "CATEGORY": "EM", "x": -76.6881936, "y": 39.36265189, "GRADES": "PK-8", "ZIPCODE": "21215", "TYPE": "Traditional", "GlobalID": "69610caf-620d-4818-84db-ae153987476b" }, "geometry": { "type": "Point", "coordinates": [ -76.688193596487906, 39.362651892273099 ] } },
{ "type": "Feature", "properties": { "OBJECTID": 91, "BLDG_NUM": 248, "PRG_NUM": 248, "NAME": "Sinclair Lane Elementary", "ADDRESS": "3880 Sinclair Ln, Baltimore, MD 21213", "CLASS": "PK-5", "CATEGORY": "E", "x": -76.56105755, "y": 39.31488624, "GRADES": "PK-5", "ZIPCODE": "21213", "TYPE": "Traditional", "GlobalID": "17209a7f-cbc5-4149-82ea-d7c2045394c2" }, "geometry": { "type": "Point", "coordinates": [ -76.561057547574805, 39.314886243650299 ] } },
{ "type": "Feature", "properties": { "OBJECTID": 92, "BLDG_NUM": 249, "PRG_NUM": 249, "NAME": "Medfield Heights Elementary", "ADDRESS": "4300 Buchanan Ave, Baltimore, MD 21211", "CLASS": "PK-5", "CATEGORY": "E", "x": -76.64246895, "y": 39.34108505, "GRADES": "PK-5", "ZIPCODE": "21211", "TYPE": "Traditional", "GlobalID": "9dd76ff1-5714-4e65-83a3-a9312031fdc2" }, "geometry": { "type": "Point", "coordinates": [ -76.642468952835898, 39.341085050045002 ] } },
{ "type": "Feature", "properties": { "OBJECTID": 93, "BLDG_NUM": 250, "PRG_NUM": 250, "NAME": "Dr. Bernard Harris, Sr. Elementary", "ADDRESS": "1400 N Caroline St, Baltimore, MD 21213", "CLASS": "PK-5", "CATEGORY": "E", "x": -76.59843846, "y": 39.30673547, "GRADES": "PK-5", "ZIPCODE": "21213", "TYPE": "Traditional", "GlobalID": "8e1e5850-365a-492d-ad96-75565d9983b1" }, "geometry": { "type": "Point", "coordinates": [ -76.598438455849902, 39.3067354659213 ] } },
{ "type": "Feature", "properties": { "OBJECTID": 94, "BLDG_NUM": 251, "PRG_NUM": 251, "NAME": "Callaway Elementary", "ADDRESS": "3701 Fernhill Ave, Baltimore, MD 21215", "CLASS": "PK-5", "CATEGORY": "E", "x": -76.67835959, "y": 39.33662788, "GRADES": "PK-5", "ZIPCODE": "21215", "TYPE": "Traditional", "GlobalID": "f6982050-3ebc-4c8d-8d8e-475093bbba19" }, "geometry": { "type": "Point", "coordinates": [ -76.678359594327205, 39.336627877778703 ] } },
{ "type": "Feature", "properties": { "OBJECTID": 95, "BLDG_NUM": 256, "PRG_NUM": 256, "NAME": "Calvin M. Rodwell Elementary", "ADDRESS": "3501 Hillsdale Rd, Baltimore, MD 21207", "CLASS": "PK-8", "CATEGORY": "EM", "x": -76.69387989000001, "y": 39.3302927, "GRADES": "PK-8", "ZIPCODE": "21207", "TYPE": "Traditional", "GlobalID": "bb3b54c7-2911-4a79-b742-f0bac3cd13b4" }, "geometry": { "type": "Point", "coordinates": [ -76.693879889490901, 39.3302926983257 ] } },
{ "type": "Feature", "properties": { "OBJECTID": 96, "BLDG_NUM": 260, "PRG_NUM": 260, "NAME": "Frederick Elementary", "ADDRESS": "2501 Frederick Ave, Baltimore, MD 21223", "CLASS": "PK-5", "CATEGORY": "E", "x": -76.65690338, "y": 39.28250705, "GRADES": "PK-5", "ZIPCODE": "21223", "TYPE": "Charter-Conversion", "GlobalID": "41786c1b-f8a0-4f5b-a41e-9370e3e405f2" }, "geometry": { "type": "Point", "coordinates": [ -76.656903377308097, 39.282507054310699 ] } },
{ "type": "Feature", "properties": { "OBJECTID": 97, "BLDG_NUM": 202, "PRG_NUM": 262, "NAME": "Empowerment Academy", "ADDRESS": "851 Braddish Ave, Baltimore, MD 21216", "CLASS": "PK-8", "CATEGORY": "EM", "x": -76.65930897, "y": 39.2974576, "GRADES": "PK-8", "ZIPCODE": "21216", "TYPE": "Charter", "GlobalID": "48b911da-db4a-4ac8-b28f-e5d3475ff286" }, "geometry": { "type": "Point", "coordinates": [ -76.659308969493296, 39.2974575957629 ] } },
{ "type": "Feature", "properties": { "OBJECTID": 98, "BLDG_NUM": 301, "PRG_NUM": 301, "NAME": "William S. Baer School", "ADDRESS": "2001 N Warwick Ave, Baltimore, MD 21216", "CLASS": "PK-12", "CATEGORY": "EMH Sp Ed", "x": -76.65686857, "y": 39.31090947, "GRADES": "PK-12", "ZIPCODE": "21216", "TYPE": "Separate Public Day", "GlobalID": "eac988eb-6052-4307-9592-6e7098854af2" }, "geometry": { "type": "Point", "coordinates": [ -76.656868572482793, 39.310909466339901 ] } },
{ "type": "Feature", "properties": { "OBJECTID": 99, "BLDG_NUM": 78, "PRG_NUM": 303, "NAME": "Home and Hospital Program", "ADDRESS": "1500 Harlem Ave, Baltimore, MD 21217", "CLASS": "K-12", "CATEGORY": "Alternative", "x": -76.64058317, "y": 39.29789613, "GRADES": "K-12", "ZIPCODE": "21217", "TYPE": "Alternative", "GlobalID": "0d50f659-6692-40fd-a0de-e6d1a46254b0" }, "geometry": { "type": "Point", "coordinates": [ -76.640583166545994, 39.297896134324901 ] } },
{ "type": "Feature", "properties": { "OBJECTID": 100, "BLDG_NUM": 405, "PRG_NUM": 307, "NAME": "Claremont School", "ADDRESS": "100 Kane St, Baltimore, MD 21224", "CLASS": "6-12", "CATEGORY": "MH Sp Ed", "x": -76.53697968, "y": 39.2921854, "GRADES": "6-12", "ZIPCODE": "21224", "TYPE": "Separate public day", "GlobalID": "94f7e636-fbeb-4f2d-8c02-4ea8e6c5ceed" }, "geometry": { "type": "Point", "coordinates": [ -76.536979678704498, 39.292185403708601 ] } },
{ "type": "Feature", "properties": { "OBJECTID": 101, "BLDG_NUM": 134, "PRG_NUM": 313, "NAME": "Lois T. Murray Elementary/Middle", "ADDRESS": "820 E 43rd St, Baltimore, MD 21212", "CLASS": "PK-8", "CATEGORY": "EM Sp Ed", "x": -76.60382241000001, "y": 39.34313469, "GRADES": "PK-8", "ZIPCODE": "21212", "TYPE": "Separate public day", "GlobalID": "b5fa39c4-2a42-4e49-92c6-27178d8c55b0" }, "geometry": { "type": "Point", "coordinates": [ -76.6038224063591, 39.343134690394699 ] } },
{ "type": "Feature", "properties": { "OBJECTID": 102, "BLDG_NUM": 36, "PRG_NUM": 314, "NAME": "Sharp-Leadenhall Elementary/Middle", "ADDRESS": "1919 N Broadway, Baltimore, MD 21213", "CLASS": "K-8", "CATEGORY": "EM Sp Ed", "x": -76.59432822, "y": 39.31327599, "GRADES": "K-8", "ZIPCODE": "21213", "TYPE": "Separate public day", "GlobalID": "7515e0c4-1210-4249-87f8-e4083aaf51e0" }, "geometry": { "type": "Point", "coordinates": [ -76.594328217259303, 39.313275990814901 ] } },
{ "type": "Feature", "properties": { "OBJECTID": 103, "BLDG_NUM": 321, "PRG_NUM": 321, "NAME": "Midtown Academy", "ADDRESS": "1398 Mt Royal Ave, Baltimore, MD 21217", "CLASS": "K-8", "CATEGORY": "EM", "x": -76.62199522, "y": 39.30807508, "GRADES": "K-8", "ZIPCODE": "21217", "TYPE": "Charter", "GlobalID": "6463c087-cff0-4b1a-a2ae-d56931608802" }, "geometry": { "type": "Point", "coordinates": [ -76.621995217081604, 39.308075080677099 ] } },
{ "type": "Feature", "properties": { "OBJECTID": 104, "BLDG_NUM": 322, "PRG_NUM": 322, "NAME": "New Song Academy", "ADDRESS": "1530 Presstman St, Baltimore, MD 21217", "CLASS": "PK-8", "CATEGORY": "EM", "x": -76.64295517, "y": 39.30555533, "GRADES": "PK-8", "ZIPCODE": "21217", "TYPE": "Charter", "GlobalID": "140ac150-b942-4a87-86a5-5b337a1e2384" }, "geometry": { "type": "Point", "coordinates": [ -76.642955171304806, 39.305555330401198 ] } },
{ "type": "Feature", "properties": { "OBJECTID": 105, "BLDG_NUM": 323, "PRG_NUM": 323, "NAME": "The Crossroads School", "ADDRESS": "802 S Caroline St, Baltimore, MD 21231", "CLASS": "6-8", "CATEGORY": "M", "x": -76.59703442, "y": 39.28186413, "GRADES": "6-8", "ZIPCODE": "21231", "TYPE": "Charter", "GlobalID": "135d4eab-7ebc-4e8c-b379-434257c10518" }, "geometry": { "type": "Point", "coordinates": [ -76.597034419038195, 39.281864126637203 ] } },
{ "type": "Feature", "properties": { "OBJECTID": 106, "BLDG_NUM": 79, "PRG_NUM": 325, "NAME": "ConneXions: A Community Based Arts School", "ADDRESS": "2801 N Dukeland St, Baltimore, MD 21216", "CLASS": "6-12", "CATEGORY": "MH", "x": -76.66440999, "y": 39.31898501, "GRADES": "6-12", "ZIPCODE": "21216", "TYPE": "Charter", "GlobalID": "5af9a078-3813-43a2-aaba-b62ea9a0bdfa" }, "geometry": { "type": "Point", "coordinates": [ -76.664409987008696, 39.3189850062749 ] } },
{ "type": "Feature", "properties": { "OBJECTID": 107, "BLDG_NUM": 326, "PRG_NUM": 326, "NAME": "City Neighbors Charter K-8", "ADDRESS": "4301 Raspe Ave, Baltimore, MD 21206", "CLASS": "K-8", "CATEGORY": "EM", "x": -76.53437877, "y": 39.34884294, "GRADES": "K-8", "ZIPCODE": "21206", "TYPE": "Charter", "GlobalID": "d063aa14-79bd-4f0f-94ab-01e25268ae1d" }, "geometry": { "type": "Point", "coordinates": [ -76.534378771438497, 39.348842936310596 ] } },
{ "type": "Feature", "properties": { "OBJECTID": 108, "BLDG_NUM": 327, "PRG_NUM": 327, "NAME": "Patterson Park Public Charter", "ADDRESS": "27 N Lakewood Ave, Baltimore, MD 21224", "CLASS": "PK-8", "CATEGORY": "EM", "x": -76.57896767, "y": 39.29280363, "GRADES": "PK-8", "ZIPCODE": "21224", "TYPE": "Charter", "GlobalID": "eafa0bf1-5391-43b0-a65b-3e3568b12ead" }, "geometry": { "type": "Point", "coordinates": [ -76.578967674429293, 39.292803632175897 ] } },
{ "type": "Feature", "properties": { "OBJECTID": 109, "BLDG_NUM": 162, "PRG_NUM": 328, "NAME": "Southwest Baltimore Charter", "ADDRESS": "1300 Herkimer St, Baltimore, MD 21223", "CLASS": "PK-8", "CATEGORY": "EM", "x": -76.63824479, "y": 39.28160118, "GRADES": "PK-8", "ZIPCODE": "21223", "TYPE": "Traditional", "GlobalID": "faa45599-b50c-4ff4-8da4-27dc8c39f09e" }, "geometry": { "type": "Point", "coordinates": [ -76.638244789749805, 39.281601177988897 ] } },
{ "type": "Feature", "properties": { "OBJECTID": 110, "BLDG_NUM": 332, "PRG_NUM": 332, "NAME": "The Green School", "ADDRESS": "2851 Kentucky Ave, Baltimore, MD 21213", "CLASS": "K-5", "CATEGORY": "E", "x": -76.57174778, "y": 39.32433003, "GRADES": "K-5", "ZIPCODE": "21213", "TYPE": "Charter", "GlobalID": "9e99a3a2-b586-44aa-9960-709cdaa21976" }, "geometry": { "type": "Point", "coordinates": [ -76.571747780594904, 39.324330026657499 ] } },
{ "type": "Feature", "properties": { "OBJECTID": 111, "BLDG_NUM": 335, "PRG_NUM": 335, "NAME": "Baltimore International Academy", "ADDRESS": "4410 Frankford Ave, Baltimore, MD 21206", "CLASS": "K-8", "CATEGORY": "EM", "x": -76.54888665, "y": 39.33583387, "GRADES": "K-8", "ZIPCODE": "21206", "TYPE": "Charter", "GlobalID": "e59a532e-a28d-497b-a942-6329d162cd7d" }, "geometry": { "type": "Point", "coordinates": [ -76.548886645476401, 39.335833868580202 ] } },
{ "type": "Feature", "properties": { "OBJECTID": 112, "BLDG_NUM": 32, "PRG_NUM": 336, "NAME": "Baltimore Montessori Public Charter", "ADDRESS": "1600 Guilford Ave, Baltimore, MD 21202", "CLASS": "PK-8", "CATEGORY": "EM", "x": -76.6123953, "y": 39.30814191, "GRADES": "PK-8", "ZIPCODE": "21202", "TYPE": "Charter", "GlobalID": "9f547a6a-b4fa-4143-be50-ac88cb936901" }, "geometry": { "type": "Point", "coordinates": [ -76.612395302667693, 39.308141910087798 ] } },
{ "type": "Feature", "properties": { "OBJECTID": 113, "BLDG_NUM": 456, "PRG_NUM": 341, "NAME": "The Reach! Partnership School", "ADDRESS": "2555 Harford Rd, Baltimore, MD 21218", "CLASS": "9-12", "CATEGORY": "H", "x": -76.59333693000001, "y": 39.31770516, "GRADES": "9-12", "ZIPCODE": "21218", "TYPE": "Transformation", "GlobalID": "200ebe69-74a4-49fd-bcdd-03ff11ad4b85" }, "geometry": { "type": "Point", "coordinates": [ -76.593336927332402, 39.317705164316202 ] } },
{ "type": "Feature", "properties": { "OBJECTID": 114, "BLDG_NUM": 451, "PRG_NUM": 345, "NAME": "Joseph Briscoe Academy", "ADDRESS": "900 Druid Hill Ave, Baltimore, MD 21201", "CLASS": "6-12", "CATEGORY": "MH Sp Ed", "x": -76.62467351, "y": 39.29836985, "GRADES": "6-12", "ZIPCODE": "21201", "TYPE": "Separate public day", "GlobalID": "6bb7781a-06e2-414b-acf8-231f9aecf3c8" }, "geometry": { "type": "Point", "coordinates": [ -76.624673505448598, 39.298369846723403 ] } },
{ "type": "Feature", "properties": { "OBJECTID": 115, "BLDG_NUM": 41, "PRG_NUM": 346, "NAME": "City Neighbors Hamilton", "ADDRESS": "5609 Sefton Ave, Baltimore, MD 21214", "CLASS": "K-8", "CATEGORY": "EM", "x": -76.55474024, "y": 39.3507435, "GRADES": "K-8", "ZIPCODE": "21214", "TYPE": "Charter", "GlobalID": "46bda1b1-e943-4b39-b41c-b3e26afe01a1" }, "geometry": { "type": "Point", "coordinates": [ -76.554740236536404, 39.350743504315197 ] } },
{ "type": "Feature", "properties": { "OBJECTID": 116, "BLDG_NUM": 411, "PRG_NUM": 347, "NAME": "KIPP Harmony Academy", "ADDRESS": "2000 Edgewood St, Baltimore, MD 21216", "CLASS": "PK-8", "CATEGORY": "EM", "x": -76.67613252, "y": 39.30998089, "GRADES": "PK-8", "ZIPCODE": "21216", "TYPE": "Charter", "GlobalID": "2f25cdfe-090c-44fe-8b3c-948e6ef126f4" }, "geometry": { "type": "Point", "coordinates": [ -76.676132518569602, 39.309980892147799 ] } },
{ "type": "Feature", "properties": { "OBJECTID": 117, "BLDG_NUM": 348, "PRG_NUM": 348, "NAME": "Baltimore Leadership School for Young Women", "ADDRESS": "128 W Franklin St, Baltimore, MD 21201", "CLASS": "6-12", "CATEGORY": "MH", "x": -76.61799686000001, "y": 39.29504856, "GRADES": "6-12", "ZIPCODE": "21201", "TYPE": "Charter", "GlobalID": "6f3c9a73-e3b4-47d1-924e-a7c35610b38b" }, "geometry": { "type": "Point", "coordinates": [ -76.6179968604457, 39.295048556328702 ] } },
{ "type": "Feature", "properties": { "OBJECTID": 118, "BLDG_NUM": 79, "PRG_NUM": 362, "NAME": "Bard Early College High School Baltimore", "ADDRESS": "2801 N Dukeland St, Baltimore, MD 21216", "CLASS": "9-12", "CATEGORY": "H", "x": -76.66460825, "y": 39.31801616, "GRADES": "9-12", "ZIPCODE": "21216", "TYPE": "Contract", "GlobalID": "0d83a40e-2640-4c4f-9e9f-7e208043207d" }, "geometry": { "type": "Point", "coordinates": [ -76.6646082512964, 39.318016156628303 ] } },
{ "type": "Feature", "properties": { "OBJECTID": 119, "BLDG_NUM": 368, "PRG_NUM": 368, "NAME": "Elmer A. Henderson: A Johns Hopkins Partnership School", "ADDRESS": "2100 Ashland Ave, Baltimore, MD 21205", "CLASS": "PK-8", "CATEGORY": "EM", "x": -76.58684428, "y": 39.30109196, "GRADES": "PK-8", "ZIPCODE": "21205", "TYPE": "Contract", "GlobalID": "3b4eafd4-d0f6-4d00-981a-cf403433541e" }, "geometry": { "type": "Point", "coordinates": [ -76.586844281645895, 39.301091956831499 ] } },
{ "type": "Feature", "properties": { "OBJECTID": 120, "BLDG_NUM": 457, "PRG_NUM": 371, "NAME": "Lillie May Carroll Jackson School", "ADDRESS": "2200 Sinclair Ln, Baltimore, MD 21213", "CLASS": "5-8", "CATEGORY": "EM", "x": -76.58709085, "y": 39.31451034, "GRADES": "5-8", "ZIPCODE": "21213", "TYPE": "Charter", "GlobalID": "0413a87e-ffe5-4b1a-8003-19ed9655c43f" }, "geometry": { "type": "Point", "coordinates": [ -76.587090848661404, 39.314510335022497 ] } },
{ "type": "Feature", "properties": { "OBJECTID": 121, "BLDG_NUM": 373, "PRG_NUM": 373, "NAME": "Tunbridge Public Charter School", "ADDRESS": "5504 York Rd, Baltimore, MD 21212", "CLASS": "PK-8", "CATEGORY": "EM", "x": -76.61044846, "y": 39.35750042, "GRADES": "PK-8", "ZIPCODE": "21212", "TYPE": "Charter", "GlobalID": "c67f0578-75f7-4f55-890c-3e1efe4ced66" }, "geometry": { "type": "Point", "coordinates": [ -76.610448461613998, 39.357500418627197 ] } },
{ "type": "Feature", "properties": { "OBJECTID": 122, "BLDG_NUM": 49, "PRG_NUM": 374, "NAME": "Vanguard Collegiate Middle", "ADDRESS": "5001 Moravia Rd, Baltimore, MD 21206", "CLASS": "6-8", "CATEGORY": "M", "x": -76.55117558000001, "y": 39.32468666, "GRADES": "6-8", "ZIPCODE": "21206", "TYPE": "Traditional", "GlobalID": "e9347691-40fc-45fe-8d6d-1a4df65a6128" }, "geometry": { "type": "Point", "coordinates": [ -76.551175579125996, 39.324686663881899 ] } },
{ "type": "Feature", "properties": { "OBJECTID": 123, "BLDG_NUM": 381, "PRG_NUM": 375, "NAME": "Baltimore Collegiate School for Boys", "ADDRESS": "2525 Kirk Ave, Baltimore, MD 21218", "CLASS": "4-8", "CATEGORY": "EM", "x": -76.60066861, "y": 39.31944301, "GRADES": "4-8", "ZIPCODE": "21218", "TYPE": "Charter", "GlobalID": "58aee351-c2d4-4d8c-b366-c5b0a593091e" }, "geometry": { "type": "Point", "coordinates": [ -76.600668605686906, 39.3194430068325 ] } },
{ "type": "Feature", "properties": { "OBJECTID": 124, "BLDG_NUM": 41, "PRG_NUM": 376, "NAME": "City Neighbors High", "ADDRESS": "5609 Sefton Ave, Baltimore, MD 21214", "CLASS": "9-12", "CATEGORY": "H", "x": -76.55524313, "y": 39.35040254, "GRADES": "9-12", "ZIPCODE": "21214", "TYPE": "Charter", "GlobalID": "35b070d4-7c13-4ccc-b628-1b1b12dcbad4" }, "geometry": { "type": "Point", "coordinates": [ -76.555243127442793, 39.350402538624301 ] } },
{ "type": "Feature", "properties": { "OBJECTID": 125, "BLDG_NUM": 377, "PRG_NUM": 377, "NAME": "Green Street Academy", "ADDRESS": "125 N Hilton St, Baltimore, MD 21229", "CLASS": "6-12", "CATEGORY": "MH", "x": -76.67200867, "y": 39.28797466, "GRADES": "6-12", "ZIPCODE": "21229", "TYPE": "Charter", "GlobalID": "3f2abaea-71f3-47e7-828b-512abfc15798" }, "geometry": { "type": "Point", "coordinates": [ -76.672008667521894, 39.287974655888497 ] } },
{ "type": "Feature", "properties": { "OBJECTID": 126, "BLDG_NUM": 382, "PRG_NUM": 382, "NAME": "Baltimore Design School", "ADDRESS": "1500 Barclay St, Baltimore, MD 21202", "CLASS": "6-12", "CATEGORY": "MH", "x": -76.61088334, "y": 39.30744505, "GRADES": "6-12", "ZIPCODE": "21202", "TYPE": "Transformation", "GlobalID": "7a665ddf-3fbe-491b-bd7e-0269d8615abe" }, "geometry": { "type": "Point", "coordinates": [ -76.610883335516903, 39.307445048131797 ] } },
{ "type": "Feature", "properties": { "OBJECTID": 127, "BLDG_NUM": 38, "PRG_NUM": 384, "NAME": "Creative City Public Charter", "ADDRESS": "2810 Shirley Ave, Baltimore, MD 21215", "CLASS": "K-5", "CATEGORY": "E", "x": -76.6649524, "y": 39.33368341, "GRADES": "K-5", "ZIPCODE": "21215", "TYPE": "Charter", "GlobalID": "5f0fd07c-4d57-4106-b629-dd7d92036e44" }, "geometry": { "type": "Point", "coordinates": [ -76.664952401937498, 39.333683408300203 ] } },
{ "type": "Feature", "properties": { "OBJECTID": 128, "BLDG_NUM": 89, "PRG_NUM": 385, "NAME": "BIA West", "ADDRESS": "4300 Sidehill Rd, Baltimore, MD 21229", "CLASS": "K-8", "CATEGORY": "EM", "x": -76.6925589, "y": 39.29793654, "GRADES": "K-8", "ZIPCODE": "21229", "TYPE": "Charter", "GlobalID": "4bf11f34-8e99-48d6-8a0f-f7af7a04fef7" }, "geometry": { "type": "Point", "coordinates": [ -76.692558903105706, 39.297936542719 ] } },
{ "type": "Feature", "properties": { "OBJECTID": 129, "BLDG_NUM": 600, "PRG_NUM": 386, "NAME": "Clay Hill Public Charter School", "ADDRESS": "6400 E Pratt St, Baltimore, MD 21224", "CLASS": "K-7", "CATEGORY": "EM", "x": -76.53941556, "y": 39.2909868, "GRADES": "K-7", "ZIPCODE": "21224", "TYPE": "Charter ", "GlobalID": "a752d331-3790-4738-8266-49a22b3ef6d5" }, "geometry": { "type": "Point", "coordinates": [ -76.539415558486994, 39.29098679778 ] } },
{ "type": "Feature", "properties": { "OBJECTID": 130, "BLDG_NUM": 400, "PRG_NUM": 400, "NAME": "Edmondson-Westside High", "ADDRESS": "501 N Athol Ave, Baltimore, MD 21229", "CLASS": "9-12", "CATEGORY": "H", "x": -76.6885294, "y": 39.29229671, "GRADES": "9-12", "ZIPCODE": "21229", "TYPE": "Traditional", "GlobalID": "8d0e3ef1-5637-49c2-88a4-3ce4d99db372" }, "geometry": { "type": "Point", "coordinates": [ -76.688529399330093, 39.292296708588601 ] } },
{ "type": "Feature", "properties": { "OBJECTID": 131, "BLDG_NUM": 403, "PRG_NUM": 403, "NAME": "Baltimore Polytechnic Institute", "ADDRESS": "1400 W Cold Spring Ln, Baltimore, MD 21209", "CLASS": "9-12", "CATEGORY": "H", "x": -76.64410464, "y": 39.34616765, "GRADES": "9-12", "ZIPCODE": "21209", "TYPE": "Traditional", "GlobalID": "efdaf451-9b67-433d-84e6-f4fa5393bb98" }, "geometry": { "type": "Point", "coordinates": [ -76.644104638966198, 39.346167653308598 ] } },
{ "type": "Feature", "properties": { "OBJECTID": 132, "BLDG_NUM": 405, "PRG_NUM": 405, "NAME": "Patterson High", "ADDRESS": "100 Kane St, Baltimore, MD 21224", "CLASS": "9-12", "CATEGORY": "H", "x": -76.53662517, "y": 39.29248549, "GRADES": "9-12", "ZIPCODE": "21224", "TYPE": "Traditional", "GlobalID": "367335d0-0889-4fa4-9c2f-76f16d4a0a32" }, "geometry": { "type": "Point", "coordinates": [ -76.536625170918498, 39.292485487795801 ] } },
{ "type": "Feature", "properties": { "OBJECTID": 133, "BLDG_NUM": 406, "PRG_NUM": 406, "NAME": "Forest Park High", "ADDRESS": "3701 Eldorado Ave, Baltimore, MD 21207", "CLASS": "9-12", "CATEGORY": "H", "x": -76.68977912, "y": 39.33273381, "GRADES": "9-12", "ZIPCODE": "21207", "TYPE": "Traditional", "GlobalID": "2c0d869a-25c7-4d47-b64e-9b06e39dfb8f" }, "geometry": { "type": "Point", "coordinates": [ -76.689779115990206, 39.332733814837198 ] } },
{ "type": "Feature", "properties": { "OBJECTID": 134, "BLDG_NUM": 407, "PRG_NUM": 407, "NAME": "Western High", "ADDRESS": "4600 Falls Rd, Baltimore, MD 21209", "CLASS": "9-12", "CATEGORY": "H", "x": -76.64245236, "y": 39.34702596, "GRADES": "9-12", "ZIPCODE": "21209", "TYPE": "Traditional", "GlobalID": "16cf88ef-207b-4075-a7bd-64c02b7be9ec" }, "geometry": { "type": "Point", "coordinates": [ -76.642452355938502, 39.3470259613458 ] } },
{ "type": "Feature", "properties": { "OBJECTID": 135, "BLDG_NUM": 410, "PRG_NUM": 410, "NAME": "Mergenthaler Vocational-Technical High", "ADDRESS": "3500 Hillen Rd, Baltimore, MD 21218", "CLASS": "9-12", "CATEGORY": "H", "x": -76.59090709, "y": 39.33257574, "GRADES": "9-12", "ZIPCODE": "21218", "TYPE": "Traditional", "GlobalID": "24c5f0ce-90b3-400e-ac62-5449a181f172" }, "geometry": { "type": "Point", "coordinates": [ -76.590907085779193, 39.332575742939099 ] } },
{ "type": "Feature", "properties": { "OBJECTID": 136, "BLDG_NUM": 402, "PRG_NUM": 413, "NAME": "Achievement Academy at Harbor City High", "ADDRESS": "2201 Pinewood Ave, Baltimore, MD 21214", "CLASS": "9-12", "CATEGORY": "Alternative", "x": -76.57136447000001, "y": 39.36611691, "GRADES": "9-12", "ZIPCODE": "21214", "TYPE": "Alternative", "GlobalID": "b7c160cc-79e3-447a-9682-8eb0d01fa48c" }, "geometry": { "type": "Point", "coordinates": [ -76.571364472900896, 39.366116908293399 ] } },
{ "type": "Feature", "properties": { "OBJECTID": 137, "BLDG_NUM": 414, "PRG_NUM": 414, "NAME": "Paul Laurence Dunbar High", "ADDRESS": "1400 Orleans St, Baltimore, MD 21231", "CLASS": "9-12", "CATEGORY": "H", "x": -76.59862462, "y": 39.29534597, "GRADES": "9-12", "ZIPCODE": "21231", "TYPE": "Traditional", "GlobalID": "51db856e-f31a-4798-a710-2e15a120b65e" }, "geometry": { "type": "Point", "coordinates": [ -76.598624616374195, 39.295345968604003 ] } },
{ "type": "Feature", "properties": { "OBJECTID": 138, "BLDG_NUM": 415, "PRG_NUM": 415, "NAME": "Baltimore School for the Arts", "ADDRESS": "712 Cathedral St, Baltimore, MD 21201", "CLASS": "9-12", "CATEGORY": "H", "x": -76.61737445, "y": 39.29837056, "GRADES": "9-12", "ZIPCODE": "21201", "TYPE": "Traditional", "GlobalID": "1e663957-3a1d-4211-a0de-be014dbc6d5e" }, "geometry": { "type": "Point", "coordinates": [ -76.617374448934996, 39.298370562319498 ] } },
{ "type": "Feature", "properties": { "OBJECTID": 139, "BLDG_NUM": 416, "PRG_NUM": 416, "NAME": "Digital Harbor High", "ADDRESS": "1100 Covington St, Baltimore, MD 21230", "CLASS": "9-12", "CATEGORY": "H", "x": -76.60726082, "y": 39.27701926, "GRADES": "9-12", "ZIPCODE": "21230", "TYPE": "Traditional", "GlobalID": "96cd2a8a-dd00-4823-aa23-67b4004fd63a" }, "geometry": { "type": "Point", "coordinates": [ -76.607260823945595, 39.277019261262502 ] } },
{ "type": "Feature", "properties": { "OBJECTID": 140, "BLDG_NUM": 402, "PRG_NUM": 419, "NAME": "Reginald F. Lewis High", "ADDRESS": "2201 Pinewood Ave, Baltimore, MD 21214", "CLASS": "9-12", "CATEGORY": "H", "x": -76.57062592, "y": 39.36623872, "GRADES": "9-12", "ZIPCODE": "21214", "TYPE": "Traditional", "GlobalID": "a92b6829-a026-4604-a62b-629772beb97e" }, "geometry": { "type": "Point", "coordinates": [ -76.5706259150504, 39.3662387181745 ] } },
{ "type": "Feature", "properties": { "OBJECTID": 141, "BLDG_NUM": 133, "PRG_NUM": 421, "NAME": "National Academy Foundation", "ADDRESS": "540 N Caroline St, Baltimore, MD 21205", "CLASS": "6-12", "CATEGORY": "MH", "x": -76.59775399, "y": 39.29700492, "GRADES": "6-12", "ZIPCODE": "21205", "TYPE": "Traditional", "GlobalID": "9f17e169-a1bd-4470-bf17-8a02fdfd95c7" }, "geometry": { "type": "Point", "coordinates": [ -76.597753989578294, 39.297004917073799 ] } },
{ "type": "Feature", "properties": { "OBJECTID": 142, "BLDG_NUM": 56, "PRG_NUM": 427, "NAME": "Academy for College and Career Exploration", "ADDRESS": "1300 W 36th St, Baltimore, MD 21211", "CLASS": "6-12", "CATEGORY": "MH", "x": -76.63764458, "y": 39.33075145, "GRADES": "6-12", "ZIPCODE": "21211", "TYPE": "Traditional", "GlobalID": "f10987ef-9c76-4baa-8f98-f6606812d172" }, "geometry": { "type": "Point", "coordinates": [ -76.637644581193996, 39.330751454397998 ] } },
{ "type": "Feature", "properties": { "OBJECTID": 143, "BLDG_NUM": 178, "PRG_NUM": 429, "NAME": "Vivien T. Thomas Medical Arts Academy", "ADDRESS": "100 N Calhoun St, Baltimore, MD 21223", "CLASS": "9-12", "CATEGORY": "H", "x": -76.63996919, "y": 39.29046754, "GRADES": "9-12", "ZIPCODE": "21223", "TYPE": "Traditional", "GlobalID": "d86a9f37-f62f-4c41-9c3b-e62d6ee18b4d" }, "geometry": { "type": "Point", "coordinates": [ -76.639969190293101, 39.290467541138902 ] } },
{ "type": "Feature", "properties": { "OBJECTID": 144, "BLDG_NUM": 78, "PRG_NUM": 430, "NAME": "Augusta Fells Savage Institute of Visual Arts", "ADDRESS": "1500 Harlem Ave, Baltimore, MD 21217", "CLASS": "9-12", "CATEGORY": "H", "x": -76.64221952, "y": 39.29682995, "GRADES": "9-12", "ZIPCODE": "21217", "TYPE": "Traditional", "GlobalID": "1e3c3420-c737-4393-920b-91f298cff8ed" }, "geometry": { "type": "Point", "coordinates": [ -76.642219515088101, 39.296829945632602 ] } },
{ "type": "Feature", "properties": { "OBJECTID": 145, "BLDG_NUM": 432, "PRG_NUM": 432, "NAME": "Coppin Academy", "ADDRESS": "2500 W North Ave, Baltimore, MD 21216", "CLASS": "9-12", "CATEGORY": "H", "x": -76.6573923, "y": 39.31298338, "GRADES": "9-12", "ZIPCODE": "21216", "TYPE": "Charter", "GlobalID": "6667a089-f719-4857-b0ac-404bd7d0ad68" }, "geometry": { "type": "Point", "coordinates": [ -76.657392298600101, 39.312983380190602 ] } },
{ "type": "Feature", "properties": { "OBJECTID": 146, "BLDG_NUM": 130, "PRG_NUM": 433, "NAME": "Renaissance Academy", "ADDRESS": "1301 McCulloh St, Baltimore, MD 21217", "CLASS": "9-12", "CATEGORY": "H", "x": -76.62750474000001, "y": 39.30343674, "GRADES": "9-12", "ZIPCODE": "21217", "TYPE": "Traditional", "GlobalID": "c5a28ccc-3f11-416c-a1c9-a338532c072d" }, "geometry": { "type": "Point", "coordinates": [ -76.627504740554201, 39.303436743933801 ] } },
{ "type": "Feature", "properties": { "OBJECTID": 147, "BLDG_NUM": 450, "PRG_NUM": 450, "NAME": "Frederick Douglass High", "ADDRESS": "2301 Gwynns Falls Pkwy, Baltimore, MD 21217", "CLASS": "9-12", "CATEGORY": "H", "x": -76.65493816, "y": 39.31493047, "GRADES": "9-12", "ZIPCODE": "21217", "TYPE": "Traditional", "GlobalID": "c2482935-fdb6-4d1f-8449-bc9be7640325" }, "geometry": { "type": "Point", "coordinates": [ -76.654938160494396, 39.314930467923602 ] } },
{ "type": "Feature", "properties": { "OBJECTID": 148, "BLDG_NUM": 454, "PRG_NUM": 454, "NAME": "Carver Vocational-Technical High", "ADDRESS": "2201 Presstman St, Baltimore, MD 21216", "CLASS": "9-12", "CATEGORY": "H", "x": -76.65345927, "y": 39.30481687, "GRADES": "9-12", "ZIPCODE": "21216", "TYPE": "Traditional", "GlobalID": "d8488e0c-81ee-4f60-9b02-1dfb9bb6300b" }, "geometry": { "type": "Point", "coordinates": [ -76.653459267057002, 39.304816871162402 ] } },
{ "type": "Feature", "properties": { "OBJECTID": 149, "BLDG_NUM": 480, "PRG_NUM": 480, "NAME": "Baltimore City College", "ADDRESS": "3220 The Alameda, Baltimore, MD 21218", "CLASS": "9-12", "CATEGORY": "H", "x": -76.59652109, "y": 39.32577207, "GRADES": "9-12", "ZIPCODE": "21218", "TYPE": "Traditional", "GlobalID": "7526163c-1421-4eec-84ba-a20144e0b86a" }, "geometry": { "type": "Point", "coordinates": [ -76.596521091437296, 39.325772067138701 ] } },
{ "type": "Feature", "properties": { "OBJECTID": 150, "BLDG_NUM": 79, "PRG_NUM": 734, "NAME": "Middle Alternative Program", "ADDRESS": "2801 N Dukeland St, Baltimore, MD 21216", "CLASS": "6-8", "CATEGORY": "Alternative", "x": -76.66356193, "y": 39.31758066, "GRADES": "6-8", "ZIPCODE": "21216", "TYPE": "Alternative", "GlobalID": "67701633-ff3e-4c4a-bd07-90e531a604ac" }, "geometry": { "type": "Point", "coordinates": [ -76.663561934938798, 39.317580656118501 ] } },
{ "type": "Feature", "properties": { "OBJECTID": 151, "BLDG_NUM": 858, "PRG_NUM": 854, "NAME": "Career Academy High", "ADDRESS": "1510 W Lafayette Ave, Baltimore, MD 21217", "CLASS": "9-12", "CATEGORY": "Alternative", "x": -76.64280626, "y": 39.299043, "GRADES": "9-12", "ZIPCODE": "21217", "TYPE": "Alternative", "GlobalID": "f2c6dd62-8ec4-472a-a7de-810a8f038c7a" }, "geometry": { "type": "Point", "coordinates": [ -76.642806255303697, 39.2990430000537 ] } },
{ "type": "Feature", "properties": { "OBJECTID": 152, "BLDG_NUM": 402, "PRG_NUM": 855, "NAME": "Success Academy Charter High School", "ADDRESS": "2201 Pinewood Ave, Baltimore, MD 21214", "CLASS": "9-12", "CATEGORY": "Alternative", "x": -76.57144325, "y": 39.36666505, "GRADES": "9-12", "ZIPCODE": "21214", "TYPE": "Alternative", "GlobalID": "d8ba25b9-44dd-4277-aab4-4440fb96996b" }, "geometry": { "type": "Point", "coordinates": [ -76.571443252488194, 39.366665052061201 ] } },
{ "type": "Feature", "properties": { "OBJECTID": 153, "BLDG_NUM": 78, "PRG_NUM": 858, "NAME": "Youth Opportunity High", "ADDRESS": "1500 Harlem Ave, Baltimore, MD 21217", "CLASS": "9-12", "CATEGORY": "Alternative", "x": -76.64031064, "y": 39.29688121, "GRADES": "9-12", "ZIPCODE": "21217", "TYPE": "Alternative", "GlobalID": "9d3e83a2-fcf2-4827-a4c7-818b7bb84171" }, "geometry": { "type": "Point", "coordinates": [ -76.640310642362607, 39.296881212568202 ] } },
{ "type": "Feature", "properties": { "OBJECTID": 154, "BLDG_NUM": 884, "PRG_NUM": 884, "NAME": "Eager Street Academy Middle/High", "ADDRESS": "926 Greenmount Ave, Baltimore, MD 21202", "CLASS": "6-12", "CATEGORY": "Alternative", "x": -76.60814126, "y": 39.30061454, "GRADES": "6-12", "ZIPCODE": "21202", "TYPE": "Alternative", "GlobalID": "80261c0c-cac9-4f76-a006-2dc9da47a897" }, "geometry": { "type": "Point", "coordinates": [ -76.608141259221597, 39.300614538779797 ] } },
{ "type": "Feature", "properties": { "OBJECTID": 155, "BLDG_NUM": 93, "PRG_NUM": 897, "NAME": "Baltimore Revolutionary Academy for Virtual Education", "ADDRESS": "2500 E Northern Pkwy, Baltimore, MD 21214", "CLASS": "6-12", "CATEGORY": "Alternative", "x": -76.5605579, "y": 39.36646307, "GRADES": "6-12", "ZIPCODE": "21214", "TYPE": "Alternative", "GlobalID": "f47f696e-09e8-46e2-8e4a-7eb4b5be99bf" }, "geometry": { "type": "Point", "coordinates": [ -76.560557899448398, 39.366463066778799 ] } }
]
}
